"Site","Longitude","Latitude","Elevation"
"Blackhawk",-120.352162,55.078912,962
"Bowron Pit",-122.015389,53.902111,731
"Canoe",-119.19126,52.709815,2210
"Gunnel",-123.977764,58.745762,1492
"Hourglass",-120.771611,55.21275,1131
"Hudson Bay Mountain",-127.2424,54.7734,1675
"McBride Peak",-120.12108,53.33869,2000
"Nonda",-125.509444,59.002222,1682
"Pink Mountain",-122.86491,57.06163,1756
